{
  "total_count": 50,
  "cities": [
    "Delhi",
    "Mumbai",
    "Bangalore",
    "Pune",
    "Hyderabad"
  ],
  "restaurants_by_city": {
    "Delhi": [
      {
        "name": "Punjabi By Nature",
        "slug": "punjabi-by-nature",
        "url": "https://www.eazydiner.com/delhi/punjabi-by-nature",
        "location": "Connaught Place",
        "cuisine": "North Indian, Punjabi",
        "rating": 4.3,
        "price_range": "₹₹₹",
        "image_url": "",
        "phone": "",
        "address": "Connaught Place, Delhi",
        "city": "Delhi",
        "city_slug": "delhi"
      },
      {
        "name": "Saravana Bhavan",
        "slug": "saravana-bhavan",
        "url": "https://www.eazydiner.com/delhi/saravana-bhavan",
        "location": "Connaught Place",
        "cuisine": "South Indian",
        "rating": 4.1,
        "price_range": "₹₹",
        "image_url": "",
        "phone": "",
        "address": "Connaught Place, Delhi",
        "city": "Delhi",
        "city_slug": "delhi"
      },
      {
        "name": "Cafe Delhi Heights",
        "slug": "cafe-delhi-heights",
        "url": "https://www.eazydiner.com/delhi/cafe-delhi-heights",
        "location": "Hauz Khas",
        "cuisine": "Continental, Italian",
        "rating": 4.4,
        "price_range": "₹₹",
        "image_url": "",
        "phone": "",
        "address": "Hauz Khas, Delhi",
        "city": "Delhi",
        "city_slug": "delhi"
      },
      {
        "name": "Karim's",
        "slug": "karims",
        "url": "https://www.eazydiner.com/delhi/karim's",
        "location": "Jama Masjid",
        "cuisine": "Mughlai, North Indian",
        "rating": 4.5,
        "price_range": "₹₹",
        "image_url": "",
        "phone": "",
        "address": "Jama Masjid, Delhi",
        "city": "Delhi",
        "city_slug": "delhi"
      },
      {
        "name": "Indian Accent",
        "slug": "indian-accent",
        "url": "https://www.eazydiner.com/delhi/indian-accent",
        "location": "Lodhi Road",
        "cuisine": "Modern Indian",
        "rating": 4.7,
        "price_range": "₹₹₹₹",
        "image_url": "",
        "phone": "",
        "address": "Lodhi Road, Delhi",
        "city": "Delhi",
        "city_slug": "delhi"
      },
      {
        "name": "Bukhara",
        "slug": "bukhara",
        "url": "https://www.eazydiner.com/delhi/bukhara",
        "location": "Chanakyapuri",
        "cuisine": "North Indian",
        "rating": 4.6,
        "price_range": "₹₹₹₹",
        "image_url": "",
        "phone": "",
        "address": "Chanakyapuri, Delhi",
        "city": "Delhi",
        "city_slug": "delhi"
      },
      {
        "name": "Moti Mahal",
        "slug": "moti-mahal",
        "url": "https://www.eazydiner.com/delhi/moti-mahal",
        "location": "Daryaganj",
        "cuisine": "Mughlai",
        "rating": 4.2,
        "price_range": "₹₹₹",
        "image_url": "",
        "phone": "",
        "address": "Daryaganj, Delhi",
        "city": "Delhi",
        "city_slug": "delhi"
      },
      {
        "name": "Olive Bar & Kitchen",
        "slug": "olive-bar-and-kitchen",
        "url": "https://www.eazydiner.com/delhi/olive-bar-&-kitchen",
        "location": "Mehrauli",
        "cuisine": "Mediterranean",
        "rating": 4.3,
        "price_range": "₹₹₹",
        "image_url": "",
        "phone": "",
        "address": "Mehrauli, Delhi",
        "city": "Delhi",
        "city_slug": "delhi"
      },
      {
        "name": "Farzi Cafe",
        "slug": "farzi-cafe",
        "url": "https://www.eazydiner.com/delhi/farzi-cafe",
        "location": "Connaught Place",
        "cuisine": "Modern Indian",
        "rating": 4.4,
        "price_range": "₹₹₹",
        "image_url": "",
        "phone": "",
        "address": "Connaught Place, Delhi",
        "city": "Delhi",
        "city_slug": "delhi"
      },
      {
        "name": "Social",
        "slug": "social",
        "url": "https://www.eazydiner.com/delhi/social",
        "location": "Hauz Khas",
        "cuisine": "Continental, Asian",
        "rating": 4.2,
        "price_range": "₹₹",
        "image_url": "",
        "phone": "",
        "address": "Hauz Khas, Delhi",
        "city": "Delhi",
        "city_slug": "delhi"
      }
    ],
    "Mumbai": [
      {
        "name": "Trishna",
        "slug": "trishna",
        "url": "https://www.eazydiner.com/mumbai/trishna",
        "location": "Fort",
        "cuisine": "Seafood, Coastal",
        "rating": 4.6,
        "price_range": "₹₹₹₹",
        "image_url": "",
        "phone": "",
        "address": "Fort, Mumbai",
        "city": "Mumbai",
        "city_slug": "mumbai"
      },
      {
        "name": "Britannia & Co",
        "slug": "britannia-and-co",
        "url": "https://www.eazydiner.com/mumbai/britannia-&-co",
        "location": "Ballard Estate",
        "cuisine": "Parsi, Iranian",
        "rating": 4.5,
        "price_range": "₹₹",
        "image_url": "",
        "phone": "",
        "address": "Ballard Estate, Mumbai",
        "city": "Mumbai",
        "city_slug": "mumbai"
      },
      {
        "name": "The Bombay Canteen",
        "slug": "the-bombay-canteen",
        "url": "https://www.eazydiner.com/mumbai/the-bombay-canteen",
        "location": "Lower Parel",
        "cuisine": "Modern Indian",
        "rating": 4.7,
        "price_range": "₹₹₹",
        "image_url": "",
        "phone": "",
        "address": "Lower Parel, Mumbai",
        "city": "Mumbai",
        "city_slug": "mumbai"
      },
      {
        "name": "Bademiya",
        "slug": "bademiya",
        "url": "https://www.eazydiner.com/mumbai/bademiya",
        "location": "Colaba",
        "cuisine": "Mughlai, Kebabs",
        "rating": 4.3,
        "price_range": "₹₹",
        "image_url": "",
        "phone": "",
        "address": "Colaba, Mumbai",
        "city": "Mumbai",
        "city_slug": "mumbai"
      },
      {
        "name": "Gajalee",
        "slug": "gajalee",
        "url": "https://www.eazydiner.com/mumbai/gajalee",
        "location": "Vile Parle",
        "cuisine": "Seafood",
        "rating": 4.4,
        "price_range": "₹₹₹",
        "image_url": "",
        "phone": "",
        "address": "Vile Parle, Mumbai",
        "city": "Mumbai",
        "city_slug": "mumbai"
      },
      {
        "name": "Wasabi by Morimoto",
        "slug": "wasabi-by-morimoto",
        "url": "https://www.eazydiner.com/mumbai/wasabi-by-morimoto",
        "location": "Lower Parel",
        "cuisine": "Japanese",
        "rating": 4.6,
        "price_range": "₹₹₹₹",
        "image_url": "",
        "phone": "",
        "address": "Lower Parel, Mumbai",
        "city": "Mumbai",
        "city_slug": "mumbai"
      },
      {
        "name": "Bastian",
        "slug": "bastian",
        "url": "https://www.eazydiner.com/mumbai/bastian",
        "location": "Bandra",
        "cuisine": "Seafood",
        "rating": 4.5,
        "price_range": "₹₹₹₹",
        "image_url": "",
        "phone": "",
        "address": "Bandra, Mumbai",
        "city": "Mumbai",
        "city_slug": "mumbai"
      },
      {
        "name": "Cafe Mondegar",
        "slug": "cafe-mondegar",
        "url": "https://www.eazydiner.com/mumbai/cafe-mondegar",
        "location": "Colaba",
        "cuisine": "Continental",
        "rating": 4.2,
        "price_range": "₹₹",
        "image_url": "",
        "phone": "",
        "address": "Colaba, Mumbai",
        "city": "Mumbai",
        "city_slug": "mumbai"
      },
      {
        "name": "Soam",
        "slug": "soam",
        "url": "https://www.eazydiner.com/mumbai/soam",
        "location": "Bandra",
        "cuisine": "Gujarati, Rajasthani",
        "rating": 4.4,
        "price_range": "₹₹₹",
        "image_url": "",
        "phone": "",
        "address": "Bandra, Mumbai",
        "city": "Mumbai",
        "city_slug": "mumbai"
      },
      {
        "name": "Masala Library",
        "slug": "masala-library",
        "url": "https://www.eazydiner.com/mumbai/masala-library",
        "location": "Bandra Kurla Complex",
        "cuisine": "Modern Indian",
        "rating": 4.6,
        "price_range": "₹₹₹₹",
        "image_url": "",
        "phone": "",
        "address": "Bandra Kurla Complex, Mumbai",
        "city": "Mumbai",
        "city_slug": "mumbai"
      }
    ],
    "Bangalore": [
      {
        "name": "Karavalli",
        "slug": "karavalli",
        "url": "https://www.eazydiner.com/bangalore/karavalli",
        "location": "Vittal Mallya Road",
        "cuisine": "Coastal, South Indian",
        "rating": 4.6,
        "price_range": "₹₹₹₹",
        "image_url": "",
        "phone": "",
        "address": "Vittal Mallya Road, Bangalore",
        "city": "Bangalore",
        "city_slug": "bangalore"
      },
      {
        "name": "Vidyarthi Bhavan",
        "slug": "vidyarthi-bhavan",
        "url": "https://www.eazydiner.com/bangalore/vidyarthi-bhavan",
        "location": "Basavanagudi",
        "cuisine": "South Indian",
        "rating": 4.3,
        "price_range": "₹",
        "image_url": "",
        "phone": "",
        "address": "Basavanagudi, Bangalore",
        "city": "Bangalore",
        "city_slug": "bangalore"
      },
      {
        "name": "Toit",
        "slug": "toit",
        "url": "https://www.eazydiner.com/bangalore/toit",
        "location": "Indiranagar",
        "cuisine": "Continental, Brewery",
        "rating": 4.5,
        "price_range": "₹₹₹",
        "image_url": "",
        "phone": "",
        "address": "Indiranagar, Bangalore",
        "city": "Bangalore",
        "city_slug": "bangalore"
      },
      {
        "name": "MTR",
        "slug": "mtr",
        "url": "https://www.eazydiner.com/bangalore/mtr",
        "location": "Lalbagh Road",
        "cuisine": "South Indian",
        "rating": 4.2,
        "price_range": "₹₹",
        "image_url": "",
        "phone": "",
        "address": "Lalbagh Road, Bangalore",
        "city": "Bangalore",
        "city_slug": "bangalore"
      },
      {
        "name": "Koshy's",
        "slug": "koshys",
        "url": "https://www.eazydiner.com/bangalore/koshy's",
        "location": "MG Road",
        "cuisine": "Continental, Indian",
        "rating": 4.1,
        "price_range": "₹₹",
        "image_url": "",
        "phone": "",
        "address": "MG Road, Bangalore",
        "city": "Bangalore",
        "city_slug": "bangalore"
      },
      {
        "name": "Rim Naam",
        "slug": "rim-naam",
        "url": "https://www.eazydiner.com/bangalore/rim-naam",
        "location": "MG Road",
        "cuisine": "Thai",
        "rating": 4.5,
        "price_range": "₹₹₹₹",
        "image_url": "",
        "phone": "",
        "address": "MG Road, Bangalore",
        "city": "Bangalore",
        "city_slug": "bangalore"
      },
      {
        "name": "Truffles",
        "slug": "truffles",
        "url": "https://www.eazydiner.com/bangalore/truffles",
        "location": "Koramangala",
        "cuisine": "American, Burgers",
        "rating": 4.4,
        "price_range": "₹₹",
        "image_url": "",
        "phone": "",
        "address": "Koramangala, Bangalore",
        "city": "Bangalore",
        "city_slug": "bangalore"
      },
      {
        "name": "The Only Place",
        "slug": "the-only-place",
        "url": "https://www.eazydiner.com/bangalore/the-only-place",
        "location": "Museum Road",
        "cuisine": "Continental, Steaks",
        "rating": 4.3,
        "price_range": "₹₹₹",
        "image_url": "",
        "phone": "",
        "address": "Museum Road, Bangalore",
        "city": "Bangalore",
        "city_slug": "bangalore"
      },
      {
        "name": "Barbeque Nation",
        "slug": "barbeque-nation",
        "url": "https://www.eazydiner.com/bangalore/barbeque-nation",
        "location": "Multiple Outlets",
        "cuisine": "Multi-Cuisine, BBQ",
        "rating": 4.2,
        "price_range": "₹₹₹",
        "image_url": "",
        "phone": "",
        "address": "Multiple Outlets, Bangalore",
        "city": "Bangalore",
        "city_slug": "bangalore"
      },
      {
        "name": "Fatty Bao",
        "slug": "fatty-bao",
        "url": "https://www.eazydiner.com/bangalore/fatty-bao",
        "location": "Indiranagar",
        "cuisine": "Asian, Fusion",
        "rating": 4.4,
        "price_range": "₹₹₹",
        "image_url": "",
        "phone": "",
        "address": "Indiranagar, Bangalore",
        "city": "Bangalore",
        "city_slug": "bangalore"
      }
    ],
    "Pune": [
      {
        "name": "Malaka Spice",
        "slug": "malaka-spice",
        "url": "https://www.eazydiner.com/pune/malaka-spice",
        "location": "Koregaon Park",
        "cuisine": "Asian, Thai",
        "rating": 4.5,
        "price_range": "₹₹₹",
        "image_url": "",
        "phone": "",
        "address": "Koregaon Park, Pune",
        "city": "Pune",
        "city_slug": "pune"
      },
      {
        "name": "Vaishali",
        "slug": "vaishali",
        "url": "https://www.eazydiner.com/pune/vaishali",
        "location": "FC Road",
        "cuisine": "South Indian",
        "rating": 4.2,
        "price_range": "₹₹",
        "image_url": "",
        "phone": "",
        "address": "FC Road, Pune",
        "city": "Pune",
        "city_slug": "pune"
      },
      {
        "name": "Arthur's Theme",
        "slug": "arthurs-theme",
        "url": "https://www.eazydiner.com/pune/arthur's-theme",
        "location": "Koregaon Park",
        "cuisine": "Continental",
        "rating": 4.3,
        "price_range": "₹₹₹",
        "image_url": "",
        "phone": "",
        "address": "Koregaon Park, Pune",
        "city": "Pune",
        "city_slug": "pune"
      },
      {
        "name": "Shabree",
        "slug": "shabree",
        "url": "https://www.eazydiner.com/pune/shabree",
        "location": "Multiple Outlets",
        "cuisine": "Maharashtrian",
        "rating": 4.4,
        "price_range": "₹₹",
        "image_url": "",
        "phone": "",
        "address": "Multiple Outlets, Pune",
        "city": "Pune",
        "city_slug": "pune"
      },
      {
        "name": "German Bakery",
        "slug": "german-bakery",
        "url": "https://www.eazydiner.com/pune/german-bakery",
        "location": "Koregaon Park",
        "cuisine": "Continental, Bakery",
        "rating": 4.1,
        "price_range": "₹₹",
        "image_url": "",
        "phone": "",
        "address": "Koregaon Park, Pune",
        "city": "Pune",
        "city_slug": "pune"
      },
      {
        "name": "Swig",
        "slug": "swig",
        "url": "https://www.eazydiner.com/pune/swig",
        "location": "Koregaon Park",
        "cuisine": "Multi-Cuisine",
        "rating": 4.3,
        "price_range": "₹₹₹",
        "image_url": "",
        "phone": "",
        "address": "Koregaon Park, Pune",
        "city": "Pune",
        "city_slug": "pune"
      },
      {
        "name": "Paasha",
        "slug": "paasha",
        "url": "https://www.eazydiner.com/pune/paasha",
        "location": "Koregaon Park",
        "cuisine": "North Indian",
        "rating": 4.5,
        "price_range": "₹₹₹₹",
        "image_url": "",
        "phone": "",
        "address": "Koregaon Park, Pune",
        "city": "Pune",
        "city_slug": "pune"
      },
      {
        "name": "The Urban Foundry",
        "slug": "the-urban-foundry",
        "url": "https://www.eazydiner.com/pune/the-urban-foundry",
        "location": "Baner",
        "cuisine": "Continental",
        "rating": 4.4,
        "price_range": "₹₹₹",
        "image_url": "",
        "phone": "",
        "address": "Baner, Pune",
        "city": "Pune",
        "city_slug": "pune"
      },
      {
        "name": "Terttulia",
        "slug": "terttulia",
        "url": "https://www.eazydiner.com/pune/terttulia",
        "location": "Koregaon Park",
        "cuisine": "European",
        "rating": 4.2,
        "price_range": "₹₹₹",
        "image_url": "",
        "phone": "",
        "address": "Koregaon Park, Pune",
        "city": "Pune",
        "city_slug": "pune"
      },
      {
        "name": "High Spirits",
        "slug": "high-spirits",
        "url": "https://www.eazydiner.com/pune/high-spirits",
        "location": "Koregaon Park",
        "cuisine": "Multi-Cuisine",
        "rating": 4.3,
        "price_range": "₹₹₹",
        "image_url": "",
        "phone": "",
        "address": "Koregaon Park, Pune",
        "city": "Pune",
        "city_slug": "pune"
      }
    ],
    "Hyderabad": [
      {
        "name": "Paradise",
        "slug": "paradise",
        "url": "https://www.eazydiner.com/hyderabad/paradise",
        "location": "Secunderabad",
        "cuisine": "Biryani, Mughlai",
        "rating": 4.4,
        "price_range": "₹₹",
        "image_url": "",
        "phone": "",
        "address": "Secunderabad, Hyderabad",
        "city": "Hyderabad",
        "city_slug": "hyderabad"
      },
      {
        "name": "Bawarchi",
        "slug": "bawarchi",
        "url": "https://www.eazydiner.com/hyderabad/bawarchi",
        "location": "RTC Cross Roads",
        "cuisine": "Biryani, North Indian",
        "rating": 4.3,
        "price_range": "₹₹",
        "image_url": "",
        "phone": "",
        "address": "RTC Cross Roads, Hyderabad",
        "city": "Hyderabad",
        "city_slug": "hyderabad"
      },
      {
        "name": "Shah Ghouse",
        "slug": "shah-ghouse",
        "url": "https://www.eazydiner.com/hyderabad/shah-ghouse",
        "location": "Tolichowki",
        "cuisine": "Biryani, Mughlai",
        "rating": 4.2,
        "price_range": "₹₹",
        "image_url": "",
        "phone": "",
        "address": "Tolichowki, Hyderabad",
        "city": "Hyderabad",
        "city_slug": "hyderabad"
      },
      {
        "name": "Chutneys",
        "slug": "chutneys",
        "url": "https://www.eazydiner.com/hyderabad/chutneys",
        "location": "Banjara Hills",
        "cuisine": "South Indian",
        "rating": 4.1,
        "price_range": "₹₹",
        "image_url": "",
        "phone": "",
        "address": "Banjara Hills, Hyderabad",
        "city": "Hyderabad",
        "city_slug": "hyderabad"
      },
      {
        "name": "Ohri's",
        "slug": "ohris",
        "url": "https://www.eazydiner.com/hyderabad/ohri's",
        "location": "Multiple Outlets",
        "cuisine": "Multi-Cuisine",
        "rating": 4.3,
        "price_range": "₹₹₹",
        "image_url": "",
        "phone": "",
        "address": "Multiple Outlets, Hyderabad",
        "city": "Hyderabad",
        "city_slug": "hyderabad"
      },
      {
        "name": "Flechazo",
        "slug": "flechazo",
        "url": "https://www.eazydiner.com/hyderabad/flechazo",
        "location": "Jubilee Hills",
        "cuisine": "Spanish, Continental",
        "rating": 4.5,
        "price_range": "₹₹₹₹",
        "image_url": "",
        "phone": "",
        "address": "Jubilee Hills, Hyderabad",
        "city": "Hyderabad",
        "city_slug": "hyderabad"
      },
      {
        "name": "Absolute Barbecues",
        "slug": "absolute-barbecues",
        "url": "https://www.eazydiner.com/hyderabad/absolute-barbecues",
        "location": "Multiple Outlets",
        "cuisine": "BBQ, Multi-Cuisine",
        "rating": 4.4,
        "price_range": "₹₹₹",
        "image_url": "",
        "phone": "",
        "address": "Multiple Outlets, Hyderabad",
        "city": "Hyderabad",
        "city_slug": "hyderabad"
      },
      {
        "name": "Minerva Coffee Shop",
        "slug": "minerva-coffee-shop",
        "url": "https://www.eazydiner.com/hyderabad/minerva-coffee-shop",
        "location": "Multiple Outlets",
        "cuisine": "South Indian",
        "rating": 4.2,
        "price_range": "₹₹",
        "image_url": "",
        "phone": "",
        "address": "Multiple Outlets, Hyderabad",
        "city": "Hyderabad",
        "city_slug": "hyderabad"
      },
      {
        "name": "Jewel of Nizam",
        "slug": "jewel-of-nizam",
        "url": "https://www.eazydiner.com/hyderabad/jewel-of-nizam",
        "location": "Falaknuma Palace",
        "cuisine": "Hyderabadi",
        "rating": 4.5,
        "price_range": "₹₹₹₹",
        "image_url": "",
        "phone": "",
        "address": "Falaknuma Palace, Hyderabad",
        "city": "Hyderabad",
        "city_slug": "hyderabad"
      },
      {
        "name": "Over The Moon",
        "slug": "over-the-moon",
        "url": "https://www.eazydiner.com/hyderabad/over-the-moon",
        "location": "Banjara Hills",
        "cuisine": "Continental",
        "rating": 4.3,
        "price_range": "₹₹₹",
        "image_url": "",
        "phone": "",
        "address": "Banjara Hills, Hyderabad",
        "city": "Hyderabad",
        "city_slug": "hyderabad"
      }
    ]
  },
  "all_restaurants": [
    {
      "name": "Punjabi By Nature",
      "slug": "punjabi-by-nature",
      "url": "https://www.eazydiner.com/delhi/punjabi-by-nature",
      "location": "Connaught Place",
      "cuisine": "North Indian, Punjabi",
      "rating": 4.3,
      "price_range": "₹₹₹",
      "image_url": "",
      "phone": "",
      "address": "Connaught Place, Delhi",
      "city": "Delhi",
      "city_slug": "delhi"
    },
    {
      "name": "Saravana Bhavan",
      "slug": "saravana-bhavan",
      "url": "https://www.eazydiner.com/delhi/saravana-bhavan",
      "location": "Connaught Place",
      "cuisine": "South Indian",
      "rating": 4.1,
      "price_range": "₹₹",
      "image_url": "",
      "phone": "",
      "address": "Connaught Place, Delhi",
      "city": "Delhi",
      "city_slug": "delhi"
    },
    {
      "name": "Cafe Delhi Heights",
      "slug": "cafe-delhi-heights",
      "url": "https://www.eazydiner.com/delhi/cafe-delhi-heights",
      "location": "Hauz Khas",
      "cuisine": "Continental, Italian",
      "rating": 4.4,
      "price_range": "₹₹",
      "image_url": "",
      "phone": "",
      "address": "Hauz Khas, Delhi",
      "city": "Delhi",
      "city_slug": "delhi"
    },
    {
      "name": "Karim's",
      "slug": "karims",
      "url": "https://www.eazydiner.com/delhi/karim's",
      "location": "Jama Masjid",
      "cuisine": "Mughlai, North Indian",
      "rating": 4.5,
      "price_range": "₹₹",
      "image_url": "",
      "phone": "",
      "address": "Jama Masjid, Delhi",
      "city": "Delhi",
      "city_slug": "delhi"
    },
    {
      "name": "Indian Accent",
      "slug": "indian-accent",
      "url": "https://www.eazydiner.com/delhi/indian-accent",
      "location": "Lodhi Road",
      "cuisine": "Modern Indian",
      "rating": 4.7,
      "price_range": "₹₹₹₹",
      "image_url": "",
      "phone": "",
      "address": "Lodhi Road, Delhi",
      "city": "Delhi",
      "city_slug": "delhi"
    },
    {
      "name": "Bukhara",
      "slug": "bukhara",
      "url": "https://www.eazydiner.com/delhi/bukhara",
      "location": "Chanakyapuri",
      "cuisine": "North Indian",
      "rating": 4.6,
      "price_range": "₹₹₹₹",
      "image_url": "",
      "phone": "",
      "address": "Chanakyapuri, Delhi",
      "city": "Delhi",
      "city_slug": "delhi"
    },
    {
      "name": "Moti Mahal",
      "slug": "moti-mahal",
      "url": "https://www.eazydiner.com/delhi/moti-mahal",
      "location": "Daryaganj",
      "cuisine": "Mughlai",
      "rating": 4.2,
      "price_range": "₹₹₹",
      "image_url": "",
      "phone": "",
      "address": "Daryaganj, Delhi",
      "city": "Delhi",
      "city_slug": "delhi"
    },
    {
      "name": "Olive Bar & Kitchen",
      "slug": "olive-bar-and-kitchen",
      "url": "https://www.eazydiner.com/delhi/olive-bar-&-kitchen",
      "location": "Mehrauli",
      "cuisine": "Mediterranean",
      "rating": 4.3,
      "price_range": "₹₹₹",
      "image_url": "",
      "phone": "",
      "address": "Mehrauli, Delhi",
      "city": "Delhi",
      "city_slug": "delhi"
    },
    {
      "name": "Farzi Cafe",
      "slug": "farzi-cafe",
      "url": "https://www.eazydiner.com/delhi/farzi-cafe",
      "location": "Connaught Place",
      "cuisine": "Modern Indian",
      "rating": 4.4,
      "price_range": "₹₹₹",
      "image_url": "",
      "phone": "",
      "address": "Connaught Place, Delhi",
      "city": "Delhi",
      "city_slug": "delhi"
    },
    {
      "name": "Social",
      "slug": "social",
      "url": "https://www.eazydiner.com/delhi/social",
      "location": "Hauz Khas",
      "cuisine": "Continental, Asian",
      "rating": 4.2,
      "price_range": "₹₹",
      "image_url": "",
      "phone": "",
      "address": "Hauz Khas, Delhi",
      "city": "Delhi",
      "city_slug": "delhi"
    },
    {
      "name": "Trishna",
      "slug": "trishna",
      "url": "https://www.eazydiner.com/mumbai/trishna",
      "location": "Fort",
      "cuisine": "Seafood, Coastal",
      "rating": 4.6,
      "price_range": "₹₹₹₹",
      "image_url": "",
      "phone": "",
      "address": "Fort, Mumbai",
      "city": "Mumbai",
      "city_slug": "mumbai"
    },
    {
      "name": "Britannia & Co",
      "slug": "britannia-and-co",
      "url": "https://www.eazydiner.com/mumbai/britannia-&-co",
      "location": "Ballard Estate",
      "cuisine": "Parsi, Iranian",
      "rating": 4.5,
      "price_range": "₹₹",
      "image_url": "",
      "phone": "",
      "address": "Ballard Estate, Mumbai",
      "city": "Mumbai",
      "city_slug": "mumbai"
    },
    {
      "name": "The Bombay Canteen",
      "slug": "the-bombay-canteen",
      "url": "https://www.eazydiner.com/mumbai/the-bombay-canteen",
      "location": "Lower Parel",
      "cuisine": "Modern Indian",
      "rating": 4.7,
      "price_range": "₹₹₹",
      "image_url": "",
      "phone": "",
      "address": "Lower Parel, Mumbai",
      "city": "Mumbai",
      "city_slug": "mumbai"
    },
    {
      "name": "Bademiya",
      "slug": "bademiya",
      "url": "https://www.eazydiner.com/mumbai/bademiya",
      "location": "Colaba",
      "cuisine": "Mughlai, Kebabs",
      "rating": 4.3,
      "price_range": "₹₹",
      "image_url": "",
      "phone": "",
      "address": "Colaba, Mumbai",
      "city": "Mumbai",
      "city_slug": "mumbai"
    },
    {
      "name": "Gajalee",
      "slug": "gajalee",
      "url": "https://www.eazydiner.com/mumbai/gajalee",
      "location": "Vile Parle",
      "cuisine": "Seafood",
      "rating": 4.4,
      "price_range": "₹₹₹",
      "image_url": "",
      "phone": "",
      "address": "Vile Parle, Mumbai",
      "city": "Mumbai",
      "city_slug": "mumbai"
    },
    {
      "name": "Wasabi by Morimoto",
      "slug": "wasabi-by-morimoto",
      "url": "https://www.eazydiner.com/mumbai/wasabi-by-morimoto",
      "location": "Lower Parel",
      "cuisine": "Japanese",
      "rating": 4.6,
      "price_range": "₹₹₹₹",
      "image_url": "",
      "phone": "",
      "address": "Lower Parel, Mumbai",
      "city": "Mumbai",
      "city_slug": "mumbai"
    },
    {
      "name": "Bastian",
      "slug": "bastian",
      "url": "https://www.eazydiner.com/mumbai/bastian",
      "location": "Bandra",
      "cuisine": "Seafood",
      "rating": 4.5,
      "price_range": "₹₹₹₹",
      "image_url": "",
      "phone": "",
      "address": "Bandra, Mumbai",
      "city": "Mumbai",
      "city_slug": "mumbai"
    },
    {
      "name": "Cafe Mondegar",
      "slug": "cafe-mondegar",
      "url": "https://www.eazydiner.com/mumbai/cafe-mondegar",
      "location": "Colaba",
      "cuisine": "Continental",
      "rating": 4.2,
      "price_range": "₹₹",
      "image_url": "",
      "phone": "",
      "address": "Colaba, Mumbai",
      "city": "Mumbai",
      "city_slug": "mumbai"
    },
    {
      "name": "Soam",
      "slug": "soam",
      "url": "https://www.eazydiner.com/mumbai/soam",
      "location": "Bandra",
      "cuisine": "Gujarati, Rajasthani",
      "rating": 4.4,
      "price_range": "₹₹₹",
      "image_url": "",
      "phone": "",
      "address": "Bandra, Mumbai",
      "city": "Mumbai",
      "city_slug": "mumbai"
    },
    {
      "name": "Masala Library",
      "slug": "masala-library",
      "url": "https://www.eazydiner.com/mumbai/masala-library",
      "location": "Bandra Kurla Complex",
      "cuisine": "Modern Indian",
      "rating": 4.6,
      "price_range": "₹₹₹₹",
      "image_url": "",
      "phone": "",
      "address": "Bandra Kurla Complex, Mumbai",
      "city": "Mumbai",
      "city_slug": "mumbai"
    },
    {
      "name": "Karavalli",
      "slug": "karavalli",
      "url": "https://www.eazydiner.com/bangalore/karavalli",
      "location": "Vittal Mallya Road",
      "cuisine": "Coastal, South Indian",
      "rating": 4.6,
      "price_range": "₹₹₹₹",
      "image_url": "",
      "phone": "",
      "address": "Vittal Mallya Road, Bangalore",
      "city": "Bangalore",
      "city_slug": "bangalore"
    },
    {
      "name": "Vidyarthi Bhavan",
      "slug": "vidyarthi-bhavan",
      "url": "https://www.eazydiner.com/bangalore/vidyarthi-bhavan",
      "location": "Basavanagudi",
      "cuisine": "South Indian",
      "rating": 4.3,
      "price_range": "₹",
      "image_url": "",
      "phone": "",
      "address": "Basavanagudi, Bangalore",
      "city": "Bangalore",
      "city_slug": "bangalore"
    },
    {
      "name": "Toit",
      "slug": "toit",
      "url": "https://www.eazydiner.com/bangalore/toit",
      "location": "Indiranagar",
      "cuisine": "Continental, Brewery",
      "rating": 4.5,
      "price_range": "₹₹₹",
      "image_url": "",
      "phone": "",
      "address": "Indiranagar, Bangalore",
      "city": "Bangalore",
      "city_slug": "bangalore"
    },
    {
      "name": "MTR",
      "slug": "mtr",
      "url": "https://www.eazydiner.com/bangalore/mtr",
      "location": "Lalbagh Road",
      "cuisine": "South Indian",
      "rating": 4.2,
      "price_range": "₹₹",
      "image_url": "",
      "phone": "",
      "address": "Lalbagh Road, Bangalore",
      "city": "Bangalore",
      "city_slug": "bangalore"
    },
    {
      "name": "Koshy's",
      "slug": "koshys",
      "url": "https://www.eazydiner.com/bangalore/koshy's",
      "location": "MG Road",
      "cuisine": "Continental, Indian",
      "rating": 4.1,
      "price_range": "₹₹",
      "image_url": "",
      "phone": "",
      "address": "MG Road, Bangalore",
      "city": "Bangalore",
      "city_slug": "bangalore"
    },
    {
      "name": "Rim Naam",
      "slug": "rim-naam",
      "url": "https://www.eazydiner.com/bangalore/rim-naam",
      "location": "MG Road",
      "cuisine": "Thai",
      "rating": 4.5,
      "price_range": "₹₹₹₹",
      "image_url": "",
      "phone": "",
      "address": "MG Road, Bangalore",
      "city": "Bangalore",
      "city_slug": "bangalore"
    },
    {
      "name": "Truffles",
      "slug": "truffles",
      "url": "https://www.eazydiner.com/bangalore/truffles",
      "location": "Koramangala",
      "cuisine": "American, Burgers",
      "rating": 4.4,
      "price_range": "₹₹",
      "image_url": "",
      "phone": "",
      "address": "Koramangala, Bangalore",
      "city": "Bangalore",
      "city_slug": "bangalore"
    },
    {
      "name": "The Only Place",
      "slug": "the-only-place",
      "url": "https://www.eazydiner.com/bangalore/the-only-place",
      "location": "Museum Road",
      "cuisine": "Continental, Steaks",
      "rating": 4.3,
      "price_range": "₹₹₹",
      "image_url": "",
      "phone": "",
      "address": "Museum Road, Bangalore",
      "city": "Bangalore",
      "city_slug": "bangalore"
    },
    {
      "name": "Barbeque Nation",
      "slug": "barbeque-nation",
      "url": "https://www.eazydiner.com/bangalore/barbeque-nation",
      "location": "Multiple Outlets",
      "cuisine": "Multi-Cuisine, BBQ",
      "rating": 4.2,
      "price_range": "₹₹₹",
      "image_url": "",
      "phone": "",
      "address": "Multiple Outlets, Bangalore",
      "city": "Bangalore",
      "city_slug": "bangalore"
    },
    {
      "name": "Fatty Bao",
      "slug": "fatty-bao",
      "url": "https://www.eazydiner.com/bangalore/fatty-bao",
      "location": "Indiranagar",
      "cuisine": "Asian, Fusion",
      "rating": 4.4,
      "price_range": "₹₹₹",
      "image_url": "",
      "phone": "",
      "address": "Indiranagar, Bangalore",
      "city": "Bangalore",
      "city_slug": "bangalore"
    },
    {
      "name": "Malaka Spice",
      "slug": "malaka-spice",
      "url": "https://www.eazydiner.com/pune/malaka-spice",
      "location": "Koregaon Park",
      "cuisine": "Asian, Thai",
      "rating": 4.5,
      "price_range": "₹₹₹",
      "image_url": "",
      "phone": "",
      "address": "Koregaon Park, Pune",
      "city": "Pune",
      "city_slug": "pune"
    },
    {
      "name": "Vaishali",
      "slug": "vaishali",
      "url": "https://www.eazydiner.com/pune/vaishali",
      "location": "FC Road",
      "cuisine": "South Indian",
      "rating": 4.2,
      "price_range": "₹₹",
      "image_url": "",
      "phone": "",
      "address": "FC Road, Pune",
      "city": "Pune",
      "city_slug": "pune"
    },
    {
      "name": "Arthur's Theme",
      "slug": "arthurs-theme",
      "url": "https://www.eazydiner.com/pune/arthur's-theme",
      "location": "Koregaon Park",
      "cuisine": "Continental",
      "rating": 4.3,
      "price_range": "₹₹₹",
      "image_url": "",
      "phone": "",
      "address": "Koregaon Park, Pune",
      "city": "Pune",
      "city_slug": "pune"
    },
    {
      "name": "Shabree",
      "slug": "shabree",
      "url": "https://www.eazydiner.com/pune/shabree",
      "location": "Multiple Outlets",
      "cuisine": "Maharashtrian",
      "rating": 4.4,
      "price_range": "₹₹",
      "image_url": "",
      "phone": "",
      "address": "Multiple Outlets, Pune",
      "city": "Pune",
      "city_slug": "pune"
    },
    {
      "name": "German Bakery",
      "slug": "german-bakery",
      "url": "https://www.eazydiner.com/pune/german-bakery",
      "location": "Koregaon Park",
      "cuisine": "Continental, Bakery",
      "rating": 4.1,
      "price_range": "₹₹",
      "image_url": "",
      "phone": "",
      "address": "Koregaon Park, Pune",
      "city": "Pune",
      "city_slug": "pune"
    },
    {
      "name": "Swig",
      "slug": "swig",
      "url": "https://www.eazydiner.com/pune/swig",
      "location": "Koregaon Park",
      "cuisine": "Multi-Cuisine",
      "rating": 4.3,
      "price_range": "₹₹₹",
      "image_url": "",
      "phone": "",
      "address": "Koregaon Park, Pune",
      "city": "Pune",
      "city_slug": "pune"
    },
    {
      "name": "Paasha",
      "slug": "paasha",
      "url": "https://www.eazydiner.com/pune/paasha",
      "location": "Koregaon Park",
      "cuisine": "North Indian",
      "rating": 4.5,
      "price_range": "₹₹₹₹",
      "image_url": "",
      "phone": "",
      "address": "Koregaon Park, Pune",
      "city": "Pune",
      "city_slug": "pune"
    },
    {
      "name": "The Urban Foundry",
      "slug": "the-urban-foundry",
      "url": "https://www.eazydiner.com/pune/the-urban-foundry",
      "location": "Baner",
      "cuisine": "Continental",
      "rating": 4.4,
      "price_range": "₹₹₹",
      "image_url": "",
      "phone": "",
      "address": "Baner, Pune",
      "city": "Pune",
      "city_slug": "pune"
    },
    {
      "name": "Terttulia",
      "slug": "terttulia",
      "url": "https://www.eazydiner.com/pune/terttulia",
      "location": "Koregaon Park",
      "cuisine": "European",
      "rating": 4.2,
      "price_range": "₹₹₹",
      "image_url": "",
      "phone": "",
      "address": "Koregaon Park, Pune",
      "city": "Pune",
      "city_slug": "pune"
    },
    {
      "name": "High Spirits",
      "slug": "high-spirits",
      "url": "https://www.eazydiner.com/pune/high-spirits",
      "location": "Koregaon Park",
      "cuisine": "Multi-Cuisine",
      "rating": 4.3,
      "price_range": "₹₹₹",
      "image_url": "",
      "phone": "",
      "address": "Koregaon Park, Pune",
      "city": "Pune",
      "city_slug": "pune"
    },
    {
      "name": "Paradise",
      "slug": "paradise",
      "url": "https://www.eazydiner.com/hyderabad/paradise",
      "location": "Secunderabad",
      "cuisine": "Biryani, Mughlai",
      "rating": 4.4,
      "price_range": "₹₹",
      "image_url": "",
      "phone": "",
      "address": "Secunderabad, Hyderabad",
      "city": "Hyderabad",
      "city_slug": "hyderabad"
    },
    {
      "name": "Bawarchi",
      "slug": "bawarchi",
      "url": "https://www.eazydiner.com/hyderabad/bawarchi",
      "location": "RTC Cross Roads",
      "cuisine": "Biryani, North Indian",
      "rating": 4.3,
      "price_range": "₹₹",
      "image_url": "",
      "phone": "",
      "address": "RTC Cross Roads, Hyderabad",
      "city": "Hyderabad",
      "city_slug": "hyderabad"
    },
    {
      "name": "Shah Ghouse",
      "slug": "shah-ghouse",
      "url": "https://www.eazydiner.com/hyderabad/shah-ghouse",
      "location": "Tolichowki",
      "cuisine": "Biryani, Mughlai",
      "rating": 4.2,
      "price_range": "₹₹",
      "image_url": "",
      "phone": "",
      "address": "Tolichowki, Hyderabad",
      "city": "Hyderabad",
      "city_slug": "hyderabad"
    },
    {
      "name": "Chutneys",
      "slug": "chutneys",
      "url": "https://www.eazydiner.com/hyderabad/chutneys",
      "location": "Banjara Hills",
      "cuisine": "South Indian",
      "rating": 4.1,
      "price_range": "₹₹",
      "image_url": "",
      "phone": "",
      "address": "Banjara Hills, Hyderabad",
      "city": "Hyderabad",
      "city_slug": "hyderabad"
    },
    {
      "name": "Ohri's",
      "slug": "ohris",
      "url": "https://www.eazydiner.com/hyderabad/ohri's",
      "location": "Multiple Outlets",
      "cuisine": "Multi-Cuisine",
      "rating": 4.3,
      "price_range": "₹₹₹",
      "image_url": "",
      "phone": "",
      "address": "Multiple Outlets, Hyderabad",
      "city": "Hyderabad",
      "city_slug": "hyderabad"
    },
    {
      "name": "Flechazo",
      "slug": "flechazo",
      "url": "https://www.eazydiner.com/hyderabad/flechazo",
      "location": "Jubilee Hills",
      "cuisine": "Spanish, Continental",
      "rating": 4.5,
      "price_range": "₹₹₹₹",
      "image_url": "",
      "phone": "",
      "address": "Jubilee Hills, Hyderabad",
      "city": "Hyderabad",
      "city_slug": "hyderabad"
    },
    {
      "name": "Absolute Barbecues",
      "slug": "absolute-barbecues",
      "url": "https://www.eazydiner.com/hyderabad/absolute-barbecues",
      "location": "Multiple Outlets",
      "cuisine": "BBQ, Multi-Cuisine",
      "rating": 4.4,
      "price_range": "₹₹₹",
      "image_url": "",
      "phone": "",
      "address": "Multiple Outlets, Hyderabad",
      "city": "Hyderabad",
      "city_slug": "hyderabad"
    },
    {
      "name": "Minerva Coffee Shop",
      "slug": "minerva-coffee-shop",
      "url": "https://www.eazydiner.com/hyderabad/minerva-coffee-shop",
      "location": "Multiple Outlets",
      "cuisine": "South Indian",
      "rating": 4.2,
      "price_range": "₹₹",
      "image_url": "",
      "phone": "",
      "address": "Multiple Outlets, Hyderabad",
      "city": "Hyderabad",
      "city_slug": "hyderabad"
    },
    {
      "name": "Jewel of Nizam",
      "slug": "jewel-of-nizam",
      "url": "https://www.eazydiner.com/hyderabad/jewel-of-nizam",
      "location": "Falaknuma Palace",
      "cuisine": "Hyderabadi",
      "rating": 4.5,
      "price_range": "₹₹₹₹",
      "image_url": "",
      "phone": "",
      "address": "Falaknuma Palace, Hyderabad",
      "city": "Hyderabad",
      "city_slug": "hyderabad"
    },
    {
      "name": "Over The Moon",
      "slug": "over-the-moon",
      "url": "https://www.eazydiner.com/hyderabad/over-the-moon",
      "location": "Banjara Hills",
      "cuisine": "Continental",
      "rating": 4.3,
      "price_range": "₹₹₹",
      "image_url": "",
      "phone": "",
      "address": "Banjara Hills, Hyderabad",
      "city": "Hyderabad",
      "city_slug": "hyderabad"
    }
  ]
}